{"type":"FeatureCollection","features":[{"type":"Feature","properties":{"2000":"14.3","2001":"14.4","2002":"14.9","2003":"14.6","2004":"12.7","2005":"15.6","2006":"12.6","2007":"13","2008":"11","2009":"9.9","2010":"9.2","2011":"9.6","2012":"9.1","2013":"8.6","2014":"9.7","2015":"7.9","2017":"8","2018":"8.3","2019":"8.4","2020":"8.2","id":"1","name":"Ann Arbor, MI, USA","lon":"-83.74847","lat":"42.2821","pollution":"PM2.5","trend":"Weighted Annual Mean"},"geometry":{"type":"Point","coordinates":[-83.74847,42.2821]}},{"type":"Feature","properties":{"2000":"11.5","2001":"11.1","2002":"10.8","2003":"10.4","2004":"9.7","2005":"11.5","2006":"11.6","2007":"11.2","2008":"11.2","2009":"10.4","2010":"9.7","2011":"9.3","2012":"8.6","2013":"8","2014":"8.6","2015":"6.7","2017":"5.8","2018":"6.5","2019":"8","2020":"7.4","id":"2","name":"Appleton, WI, USA","lon":"-88.41714","lat":"44.26178","pollution":"PM2.5","trend":"Weighted Annual Mean"},"geometry":{"type":"Point","coordinates":[-88.41714,44.26178]}},{"type":"Feature","properties":{"2000":"11.5","2001":"11.5","2002":"11.2","2003":"10.9","2004":"9.8","2005":"12.4","2006":"10.2","2007":"10.2","2008":"8.9","2009":"8.1","2010":"8.2","2011":"7.7","2012":"7.7","2013":"7.5","2014":"8.2","2015":"6.8","2017":"6.8","2018":"7.1","2019":"6.8","2020":"4.7","id":"3","name":"Bay City, MI, USA","lon":"-83.88491","lat":"43.59527","pollution":"PM2.5","trend":"Weighted Annual Mean"},"geometry":{"type":"Point","coordinates":[-83.88491,43.59527]}},{"type":"Feature","properties":{"2000":"6.6","2001":"6.7","2002":"6.4","2003":"7.2","2004":"6.2","2005":"6.5","2006":"6.8","2007":"6.8","2008":"7","2009":"6.5","2010":"7.8","2011":"6.3","2012":"6.3","2013":"5.9","2014":"4.9","2015":"4.6","2017":"5.8","2018":"6","2019":"4.4","2020":"5.3","id":"4","name":"Bismarck, ND, USA","lon":"-100.77969","lat":"46.80536","pollution":"PM2.5","trend":"Weighted Annual Mean"},"geometry":{"type":"Point","coordinates":[-100.77969,46.80536]}},{"type":"Feature","properties":{"2000":"12","2001":"12.5","2002":"11.8","2003":"12.4","2004":"11.3","2005":"13.9","2006":"11.9","2007":"12.1","2008":"11","2009":"11","2010":"11.9","2011":"10.5","2012":"9.7","2013":"9.5","2014":"9.3","2015":"7.7","2017":"7.2","2018":"8.2","2019":"8.2","2020":"7.8","id":"5","name":"Clinton, IA, USA","lon":"-90.19196","lat":"41.83898","pollution":"PM2.5","trend":"Weighted Annual Mean"},"geometry":{"type":"Point","coordinates":[-90.19196,41.83898]}},{"type":"Feature","properties":{"2000":"4.2","2001":"4.2","2002":"4.2","2003":"5.2","2004":"4.4","2005":"4.3","2006":"4.8","2007":"4.7","2008":"4.6","2009":"4.1","2010":"4.7","2011":"4.1","2012":"4.4","2013":"4.7","2014":"4.5","2015":"2.9","2017":"4","2018":"4.3","2019":"3.4","2020":"3.6","id":"6","name":"Dickinson, ND, USA","lon":"-102.79059","lat":"46.87903","pollution":"PM2.5","trend":"Weighted Annual Mean"},"geometry":{"type":"Point","coordinates":[-102.79059,46.87903]}},{"type":"Feature","properties":{"2000":"7.3","2001":"7","2002":"6.6","2003":"6.6","2004":"5.5","2005":"6.4","2006":"6.4","2007":"5.9","2008":"6.2","2009":"6.1","2010":"5.3","2011":"5.3","2012":"5.5","2013":"6.8","2014":"7","2015":"3.7","2017":"4","2018":"5","2019":"5","2020":"5.8","id":"7","name":"Duluth, MN, USA","lon":"-92.09985","lat":"46.78796","pollution":"PM2.5","trend":"Weighted Annual Mean"},"geometry":{"type":"Point","coordinates":[-92.09985,46.78796]}},{"type":"Feature","properties":{"2000":"12.9","2001":"13.1","2002":"12.5","2003":"12","2004":"10.5","2005":"12.9","2006":"10.9","2007":"11.1","2008":"9.8","2009":"8.7","2010":"8.9","2011":"8.5","2012":"8","2013":"7.4","2014":"8.9","2015":"7.2","2017":"7.1","2018":"7.4","2019":"7.2","2020":"6","id":"8","name":"Flint, MI, USA","lon":"-83.68679","lat":"43.01144","pollution":"PM2.5","trend":"Weighted Annual Mean"},"geometry":{"type":"Point","coordinates":[-83.68679,43.01144]}},{"type":"Feature","properties":{"2000":"11.6","2001":"11.9","2002":"11.2","2003":"11.3","2004":"9.9","2005":"11.8","2006":"12.4","2007":"11.4","2008":"11.8","2009":"11.1","2010":"10","2011":"10.1","2012":"8.7","2013":"7.6","2014":"9.1","2015":"6.9","2017":"6.1","2018":"6.4","2019":"7.3","2020":"7.3","id":"9","name":"Green Bay, WI, USA","lon":"-88.01001","lat":"44.513","pollution":"PM2.5","trend":"Weighted Annual Mean"},"geometry":{"type":"Point","coordinates":[-88.01001,44.513]}},{"type":"Feature","properties":{"2000":"6.6","2001":"5.6","2002":"6.2","2003":"6.4","2004":"6.6","2005":"8.1","2006":"8.5","2007":"6.6","2008":"7.1","2009":"7","2010":"8.8","2011":"7.1","2012":"6.4","2013":"5.9","2014":"7.7","2015":"6","2017":"5.6","2018":"6.9","2019":"6.8","2020":"4.8","id":"10","name":"Juneau, AK, USA","lon":"-134.40679","lat":"58.29973","pollution":"PM2.5","trend":"Weighted Annual Mean"},"geometry":{"type":"Point","coordinates":[-134.40679,58.29973]}},{"type":"Feature","properties":{"2000":"9.6","2001":"8.9","2002":"17.1","2003":"10","2004":"11.3","2005":"11.7","2006":"11.1","2007":"10.8","2008":"13","2009":"11.8","2010":"9.8","2011":"11","2012":"10.7","2013":"13","2014":"8.8","2015":"6.8","2017":"11.7","2018":"18.6","2019":"10.5","2020":"19.8","id":"11","name":"Klamath Falls, OR, USA","lon":"-121.78206","lat":"42.22388","pollution":"PM2.5","trend":"Weighted Annual Mean"},"geometry":{"type":"Point","coordinates":[-121.78206,42.22388]}},{"type":"Feature","properties":{"2000":"12.8","2001":"13.3","2002":"12.3","2003":"11.9","2004":"11.3","2005":"12.7","2006":"12","2007":"13.2","2008":"12.6","2009":"11.5","2010":"10.1","2011":"10.3","2012":"9.4","2013":"9.3","2014":"9.3","2015":"7.4","2017":"7.8","2018":"8.2","2019":"8.6","2020":"8.5","id":"12","name":"Madison, WI, USA","lon":"-89.38644","lat":"43.07313","pollution":"PM2.5","trend":"Weighted Annual Mean"},"geometry":{"type":"Point","coordinates":[-89.38644,43.07313]}},{"type":"Feature","properties":{"2000":"13.1","2001":"13.8","2002":"12.7","2003":"12.3","2004":"12","2005":"14.3","2006":"13.3","2007":"14.5","2008":"12.9","2009":"11.7","2010":"11","2011":"11","2012":"10.4","2013":"9.7","2014":"9.7","2015":"8","2017":"7.4","2018":"8.5","2019":"8.5","2020":"8.5","id":"13","name":"Milwaukee, WI, USA","lon":"-87.90687","lat":"43.042","pollution":"PM2.5","trend":"Weighted Annual Mean"},"geometry":{"type":"Point","coordinates":[-87.90687,43.042]}},{"type":"Feature","properties":{"2000":"11.8","2001":"11.4","2002":"10.3","2003":"9.9","2004":"8.9","2005":"10.4","2006":"9","2007":"10","2008":"10","2009":"9.9","2010":"9.3","2011":"8.9","2012":"8.9","2013":"8.4","2014":"8","2015":"6.7","2017":"7.1","2018":"7.9","2019":"7.3","2020":"7.3","id":"14","name":"Minneapolis-St. Paul-Bloomington, St Paul, MN, USA","lon":"-93.17848","lat":"44.95751","pollution":"PM2.5","trend":"Weighted Annual Mean"},"geometry":{"type":"Point","coordinates":[-93.17848,44.95751]}},{"type":"Feature","properties":{"2000":"16.2","2001":"16.9","2002":"15.6","2003":"15.7","2004":"15.1","2005":"16.7","2006":"14.4","2007":"15.5","2008":"13.2","2009":"12.5","2010":"12.8","2011":"11.4","2012":"10.4","2013":"10.3","2014":"10.5","2015":"9.3","2017":"9.9","2018":"8.8","2019":"8.8","2020":"7.8","id":"15","name":"Pittsburgh, PA, USA","lon":"-79.99734","lat":"40.43851","pollution":"PM2.5","trend":"Weighted Annual Mean"},"geometry":{"type":"Point","coordinates":[-79.99734,40.43851]}},{"type":"Feature","properties":{"2000":"8.9","2001":"10.3","2002":"9.2","2003":"7.3","2004":"7.9","2005":"8.9","2006":"7.6","2007":"8","2008":"10.2","2009":"7.9","2010":"6.1","2011":"6.7","2012":"6","2013":"10.1","2014":"7.6","2015":"6.5","2017":"7.4","2018":"8","2019":"3","2020":"3","id":"16","name":"Reno, NV, USA","lon":"-119.81353","lat":"39.52766","pollution":"PM2.5","trend":"Weighted Annual Mean"},"geometry":{"type":"Point","coordinates":[-119.81353,39.52766]}},{"type":"Feature","properties":{"2000":"10.8","2001":"10.8","2002":"9.2","2003":"8.9","2004":"8.2","2005":"9.3","2006":"7.9","2007":"8.3","2008":"8.9","2009":"8.7","2010":"8.2","2011":"8.9","2012":"8.4","2013":"6.4","2014":"6.2","2015":"5.6","2017":"5.8","2018":"6.5","2019":"5.7","2020":"5.8","id":"17","name":"St Cloud, MN, USA","lon":"-94.19752","lat":"45.56586","pollution":"PM2.5","trend":"Weighted Annual Mean"},"geometry":{"type":"Point","coordinates":[-94.19752,45.56586]}},{"type":"Feature","properties":{"2000":"15.6","2001":"15","2002":"15.3","2003":"14.3","2004":"13.1","2005":"16","2006":"13.2","2007":"14","2008":"12.6","2009":"11.7","2010":"12.5","2011":"11.8","2012":"9.8","2013":"10.9","2014":"10.7","2015":"8.3","2017":"7.9","2018":"8.9","2019":"9","2020":"7.9","id":"18","name":"St Louis, MO, USA","lon":"-90.19956","lat":"38.62775","pollution":"PM2.5","trend":"Weighted Annual Mean"},"geometry":{"type":"Point","coordinates":[-90.19956,38.62775]}},{"type":"Feature","properties":{"2000":"15.5","2001":"13.9","2002":"16.7","2003":"13.6","2004":"13.2","2005":"12.5","2006":"13.1","2007":"12.9","2008":"14.4","2009":"11.3","2010":"10.6","2011":"11.3","2012":"12.4","2013":"17.7","2014":"12.1","2015":"11.8","2017":"12.1","2018":"17.6","2019":"9.3","2020":"14.4","id":"19","name":"Stockton, CA, USA","lon":"-121.29046","lat":"37.95373","pollution":"PM2.5","trend":"Weighted Annual Mean"},"geometry":{"type":"Point","coordinates":[-121.29046,37.95373]}},{"type":"Feature","properties":{"2000":"11","2001":"10.5","2002":"11.1","2003":"9.9","2004":"10","2005":"11.5","2006":"8.3","2007":"8.2","2008":"8.2","2009":"7.6","2010":"7.6","2011":"8.1","2012":"7.2","2013":"6.4","2014":"6.5","2015":"5","2017":"5.3","2018":"5.1","2019":"6.1","2020":"6","id":"20","name":"Syracuse, NY, USA","lon":"-76.14738","lat":"43.05042","pollution":"PM2.5","trend":"Weighted Annual Mean"},"geometry":{"type":"Point","coordinates":[-76.14738,43.05042]}},{"type":"Feature","properties":{"2000":"12.3","2001":"11.3","2002":"10.3","2003":"9.3","2004":"9.6","2005":"10.4","2006":"9.5","2007":"9.7","2008":"8","2009":"7.4","2010":"8.1","2011":"7.5","2012":"6.8","2013":"6.2","2014":"6.5","2015":"7","2017":"7.6","2018":"7.4","2019":"7.7","2020":"7.9","id":"21","name":"Tampa, FL, USA","lon":"-82.45927","lat":"27.94653","pollution":"PM2.5","trend":"Weighted Annual Mean"},"geometry":{"type":"Point","coordinates":[-82.45927,27.94653]}},{"type":"Feature","properties":{"2000":"14.5","2001":"14.4","2002":"14","2003":"13.3","2004":"13.9","2005":"14.3","2006":"12.4","2007":"12.8","2008":"11.4","2009":"9.8","2010":"10.4","2011":"9.9","2012":"9.4","2013":"8.6","2014":"8.8","2015":"7.2","2017":"7.6","2018":"7.7","2019":"7.3","2020":"6.3","id":"22","name":"Washington, DC, USA","lon":"-77.03196","lat":"38.89037","pollution":"PM2.5","trend":"Weighted Annual Mean"},"geometry":{"type":"Point","coordinates":[-77.03196,38.89037]}}]}